[
  {
    "name": "이서 TVR",
    "lat": 35.131861,
    "lon": 127.010389,
    "region": "광주총국",
    "waypoint": {
      "lat": 35.1288582,
      "lon": 127.0103007,
      "address": "전남 화순군 이서면 인계리 산 77-1"
    }
  },
  {
    "name": "무정 TVR",
    "lat": 35.274583,
    "lon": 127.042139,
    "region": "광주총국",
    "waypoint": {
      "lat": 35.2758959,
      "lon": 127.0347182,
      "address": "전남 담양군 무정면 동산리 산 18"
    }
  },
  {
    "name": "고달 TVR",
    "lat": 35.303061,
    "lon": 127.384453,
    "region": "광주총국",
    "waypoint": {
      "lat": 35.3032561,
      "lon": 127.384134,
      "address": "전라남도 곡성군 고달면 고달리 산1-1"
    }
  },
  {
    "name": "영천 TVR",
    "lat": 35.294331,
    "lon": 126.78985,
    "region": "광주총국",
    "waypoint": {
      "lat": 35.299,
      "lon": 126.7878,
      "address": "전남 장성군 장성읍 영천리 산 196-1"
    }
  },
  {
    "name": "북일 TVR",
    "lat": 35.356806,
    "lon": 126.804444,
    "region": "광주총국",
    "waypoint": {
      "lat": 35.3602363,
      "lon": 126.80395,
      "address": "전남 장성군 북일면 신흥리 산 72"
    }
  },
  {
    "name": "북이 TVR",
    "lat": 35.426964,
    "lon": 126.799189,
    "region": "광주총국",
    "waypoint": {
      "lat": 35.4318419,
      "lon": 126.7969646,
      "address": "전남 장성군 북이면 신월리 720-7"
    }
  },
  {
    "name": "북하 TVR",
    "lat": 35.413417,
    "lon": 126.888472,
    "region": "광주총국",
    "waypoint": {
      "lat": 35.4114059,
      "lon": 126.8872963,
      "address": "전남 장성군 북하면 중평리 산 104-1"
    }
  },
  {
    "name": "영광 TVR",
    "lat": 35.267694,
    "lon": 126.522417,
    "region": "광주총국",
    "waypoint": {
      "lat": 35.2770967,
      "lon": 126.5362535,
      "address": "전남 영광군 영광읍 도동리 산 1-1"
    }
  },
  {
    "name": "군남 TVR",
    "lat": 35.238361,
    "lon": 126.444792,
    "region": "광주총국",
    "waypoint": {
      "lat": 35.2397313,
      "lon": 126.4476126,
      "address": "전남 영광군 군남면 양덕리 산 82"
    }
  },
  {
    "name": "법성 TVR",
    "lat": 35.348722,
    "lon": 126.452083,
    "region": "광주총국",
    "waypoint": {
      "lat": 35.3517807,
      "lon": 126.4512854,
      "address": "전남 영광군 법성면 대덕리 산 117-5"
    }
  },
  {
    "name": "홍농 TVR",
    "lat": 35.419611,
    "lon": 126.431889,
    "region": "광주총국",
    "waypoint": {
      "lat": 35.4174185,
      "lon": 126.4308797,
      "address": "전남 영광군 홍농면 성산리 산 8-2"
    }
  },
  {
    "name": "염산 TVR",
    "lat": 35.213786,
    "lon": 126.325236,
    "region": "광주총국",
    "waypoint": {
      "lat": 35.2136123,
      "lon": 126.3251722,
      "address": "전남 영광군 염산면 야월리 633-3"
    }
  },
  {
    "name": "신광 TVR",
    "lat": 35.155167,
    "lon": 126.507167,
    "region": "광주총국",
    "waypoint": {
      "lat": 35.1582569,
      "lon": 126.5059944,
      "address": "전남 함평군 신광면 월암리 69-4"
    }
  },
  {
    "name": "장흥 TVR",
    "lat": 34.700361,
    "lon": 126.918917,
    "region": "광주총국",
    "waypoint": {
      "lat": 34.7015,
      "lon": 126.9185,
      "address": "전남 장흥군 장흥읍 행원리 산 8"
    }
  },
  {
    "name": "용산 TVR",
    "lat": 34.624333,
    "lon": 126.9345,
    "region": "광주총국",
    "waypoint": {
      "lat": 34.6212568,
      "lon": 126.9345062,
      "address": "전남 장흥군 용산면 금곡리 산12-2"
    }
  },
  {
    "name": "관산 TVR",
    "lat": 34.556417,
    "lon": 126.945278,
    "region": "광주총국",
    "waypoint": {
      "lat": 34.5581456,
      "lon": 126.9435934,
      "address": "전남 장흥군 관산읍 죽교리 산 67"
    }
  },
  {
    "name": "대덕 TVR",
    "lat": 34.489,
    "lon": 126.897444,
    "region": "광주총국",
    "waypoint": {
      "lat": 34.4884578,
      "lon": 126.8987372,
      "address": "전남 장흥군 대덕읍 가학리 산 30-5"
    }
  },
  {
    "name": "회천 TVR",
    "lat": 34.690917,
    "lon": 127.086056,
    "region": "광주총국",
    "waypoint": {
      "lat": 34.6897,
      "lon": 127.0903,
      "address": "전남 보성군 회천면 동율리 산 93"
    }
  },
  {
    "name": "비아 송신소",
    "lat": 35.199062,
    "lon": 126.831275,
    "region": "광주총국"
  },
  {
    "name": "무안 TVR",
    "lat": 35.0169055556,
    "lon": 126.4686388889,
    "region": "목포국",
    "waypoint": {
      "lat": 35.0132617,
      "lon": 126.4667608,
      "address": "nan"
    }
  },
  {
    "name": "청계 TVR",
    "lat": 34.9291166667,
    "lon": 126.4037972222,
    "region": "목포국",
    "waypoint": {
      "lat": 34.9295249,
      "lon": 126.404222
    }
  },
  {
    "name": "군동 TVR",
    "lat": 34.6545833333,
    "lon": 126.8157222222,
    "region": "목포국",
    "waypoint": {
      "lat": 34.6537536,
      "lon": 126.8121483,
      "address": "nan"
    }
  },
  {
    "name": "도암 TVR",
    "lat": 34.5585833333,
    "lon": 126.7384444444,
    "region": "목포국",
    "waypoint": {
      "lat": 34.5587721,
      "lon": 126.7329962
    }
  },
  {
    "name": "한학 TVR",
    "lat": 34.7373888889,
    "lon": 126.8032777778,
    "region": "목포국",
    "waypoint": {
      "lat": 34.7335509,
      "lon": 126.8049123,
      "address": "nan"
    }
  },
  {
    "name": "계곡 TVR",
    "lat": 34.6415555556,
    "lon": 126.6670833333,
    "region": "목포국",
    "waypoint": {
      "lat": 34.6418603,
      "lon": 126.6627474,
      "address": "nan"
    }
  },
  {
    "name": "화산 TVR",
    "lat": 34.4948611111,
    "lon": 126.5189722222,
    "region": "목포국",
    "waypoint": {
      "lat": 34.4947786,
      "lon": 126.5188597
    }
  },
  {
    "name": "영암 TVR",
    "lat": 34.8104444444,
    "lon": 126.761,
    "region": "목포국",
    "waypoint": {
      "lat": 34.8113463,
      "lon": 126.7604613
    }
  },
  {
    "name": "진도 TVR",
    "lat": 34.4965277778,
    "lon": 126.2605,
    "region": "목포국",
    "waypoint": {
      "lat": 34.4970648,
      "lon": 126.2599681,
      "address": "nan"
    }
  },
  {
    "name": "의신 TVR",
    "lat": 34.4332194444,
    "lon": 126.3026388889,
    "region": "목포국",
    "waypoint": {
      "lat": 34.433388,
      "lon": 126.3026332
    }
  },
  {
    "name": "지산 TVR",
    "lat": 34.4210472222,
    "lon": 126.1875833333,
    "region": "목포국",
    "waypoint": {
      "lat": 34.4229179,
      "lon": 126.1862246,
      "address": "nan"
    }
  },
  {
    "name": "조도 TVR",
    "lat": 34.2995,
    "lon": 126.0538888889,
    "region": "목포국",
    "waypoint": {
      "lat": 34.3003094,
      "lon": 126.0524213,
      "address": "nan"
    }
  },
  {
    "name": "완도 TVR",
    "lat": 34.332,
    "lon": 126.7904166667,
    "region": "목포국",
    "waypoint": {
      "lat": 34.3288487,
      "lon": 126.7909733,
      "address": "nan"
    }
  },
  {
    "name": "노화 TVR",
    "lat": 34.1655444444,
    "lon": 126.5844388889,
    "region": "목포국",
    "waypoint": {
      "lat": 34.1644557,
      "lon": 126.5837179,
      "address": "nan"
    }
  },
  {
    "name": "도초 TVR",
    "lat": 34.6818888889,
    "lon": 125.9794444444,
    "region": "목포국",
    "waypoint": {
      "lat": 34.6762966,
      "lon": 125.979789,
      "address": "nan"
    }
  },
  {
    "name": "흑산 TVR",
    "lat": 34.6871944444,
    "lon": 125.4493888889,
    "region": "목포국",
    "waypoint": {
      "lat": 34.687161,
      "lon": 125.4470185,
      "address": "nan"
    }
  },
  {
    "name": "신월 송신소",
    "lat": 34.7219611111,
    "lon": 127.7018388889,
    "region": "순천국"
  },
  {
    "name": "순천 송신소",
    "lat": 34.9259444444,
    "lon": 127.5204166667,
    "region": "순천국"
  },
  {
    "name": "심장 TVR",
    "lat": 34.4949444444,
    "lon": 127.7839166667,
    "region": "순천국",
    "waypoint": {
      "lat": 34.4947449,
      "lon": 127.7895964,
      "address": "전라남도 여수시 남면 심장리 198-1"
    }
  },
  {
    "name": "벌교 TVR",
    "lat": 34.8461388889,
    "lon": 127.3315555556,
    "region": "순천국",
    "waypoint": {
      "lat": 34.8526045,
      "lon": 127.3292886,
      "address": "전남 보성군 벌교읍 벌교리 산3-1"
    }
  },
  {
    "name": "도하 TVR",
    "lat": 34.49855555555555,
    "lon": 127.3123333333333,
    "region": "순천국"
  },
  {
    "name": "구봉 TVR",
    "lat": 34.73855555555556,
    "lon": 127.70775,
    "region": "순천국"
  },
  {
    "name": "고흥 TVR",
    "lat": 34.6039527778,
    "lon": 127.2857111111,
    "region": "순천국",
    "waypoint": {
      "lat": 34.6010188,
      "lon": 127.282516,
      "address": "전라남도 고흥군 고흥읍 봉계1길 51-49"
    }
  },
  {
    "name": "녹동TVR",
    "lat": 34.5583527778,
    "lon": 127.1337611111,
    "region": "순천국",
    "waypoint": {
      "lat": 34.5583007,
      "lon": 127.1332991,
      "address": "전라남도 고흥군 도양읍 용정리 산194-11번지"
    }
  },
  {
    "name": "방장산 TVR",
    "lat": 34.798,
    "lon": 127.1899,
    "region": "순천국",
    "waypoint": {
      "lat": 34.7978392,
      "lon": 127.1897495,
      "address": "전라남도 보성군 조성면 동촌리 850-6번지"
    }
  },
  {
    "name": "쌍봉 TVR",
    "lat": 34.7875,
    "lon": 127.6206111111,
    "region": "순천국",
    "waypoint": {
      "lat": 34.7917473,
      "lon": 127.6191842,
      "address": "전라남도 여수시 소라면 봉두리 산 47"
    }
  },
  {
    "name": "금일 TVR",
    "lat": 34.3540555556,
    "lon": 127.0260555556,
    "region": "순천국",
    "waypoint": {
      "lat": 34.3539493,
      "lon": 127.0261786,
      "address": "전남 완도군 금일읍 화목리 산53"
    }
  },
  {
    "name": "남명 TVR",
    "lat": 34.56738888888889,
    "lon": 127.7317777777778,
    "region": "순천국"
  },
  {
    "name": "봉래 TVR",
    "lat": 34.45975,
    "lon": 127.4596666667,
    "region": "순천국",
    "waypoint": {
      "lat": 34.45828,
      "lon": 127.4581489,
      "address": "전남 고흥군 봉래면 신금리 산413-9"
    }
  },
  {
    "name": "쌍암 TVR",
    "lat": 35.0186666667,
    "lon": 127.35525,
    "region": "순천국",
    "waypoint": {
      "lat": 35.0187744,
      "lon": 127.353883,
      "address": "전라남도 순천시 승주읍 봉덕리 산60-1"
    }
  },
  {
    "name": "아미 TVR",
    "lat": 35.0953611111,
    "lon": 127.277725,
    "region": "순천국",
    "waypoint": {
      "lat": 35.0954922,
      "lon": 127.2775055,
      "address": "전라남도 곡성군 목사동면 신전리 산 132-1"
    }
  },
  {
    "name": "삼산 TVR",
    "lat": 34.0279694444,
    "lon": 127.3003083333,
    "region": "순천국",
    "waypoint": {
      "lat": 34.0279195,
      "lon": 127.304201,
      "address": "전라남도 여수시 삼산면 덕촌리 산151"
    }
  },
  {
    "name": "외서 TVR",
    "lat": 34.9314277778,
    "lon": 127.2671138889,
    "region": "순천국",
    "waypoint": {
      "lat": 34.9305066,
      "lon": 127.2702842,
      "address": "전라남도 순천시 송광면 대흥리 325-2"
    }
  },
  {
    "name": "풍양 TVR",
    "lat": 34.5411111111,
    "lon": 127.2507222222,
    "region": "순천국",
    "waypoint": {
      "lat": 34.541974,
      "lon": 127.2534252,
      "address": "전남 고흥군 풍양면 송정리 산129-1"
    }
  },
  {
    "name": "포두 TVR",
    "lat": 34.5503055556,
    "lon": 127.3863333333,
    "region": "순천국",
    "waypoint": {
      "lat": 34.5511546,
      "lon": 127.3893866,
      "address": "전남 고흥군 포두면 옥강리 산311"
    }
  },
  {
    "name": "문수 TVR",
    "lat": 34.7611027778,
    "lon": 127.6949888889,
    "region": "순천국",
    "waypoint": {
      "lat": 34.7571617,
      "lon": 127.689962,
      "address": "전라남도 여수시 둔덕동 산177"
    }
  },
  {
    "name": "광양 TVR",
    "lat": 34.93675,
    "lon": 127.6420277778,
    "region": "순천국",
    "waypoint": {
      "lat": 34.9360177,
      "lon": 127.6391624,
      "address": "전라남도 광양시 성황동 776-4"
    }
  },
  {
    "name": "관악산 송신소",
    "lat": 37.4403,
    "lon": 126.964,
    "region": "본사"
  },
  {
    "name": "남산 송신소",
    "lat": 37.5511,
    "lon": 126.988,
    "region": "본사"
  },
  {
    "name": "광교산 송신소",
    "lat": 37.3481,
    "lon": 127.027,
    "region": "본사"
  },
  {
    "name": "계양산 송신소",
    "lat": 37.5533,
    "lon": 126.714,
    "region": "본사"
  },
  {
    "name": "경기감악산 송신소",
    "lat": 37.9419,
    "lon": 126.97,
    "region": "본사"
  },
  {
    "name": "용문산 송신소",
    "lat": 37.5609,
    "lon": 127.547,
    "region": "본사"
  },
  {
    "name": "대룡산 송신소",
    "lat": 37.8461,
    "lon": 127.822,
    "region": "춘천총국"
  },
  {
    "name": "화악산 송신소",
    "lat": 37.9952,
    "lon": 127.504,
    "region": "춘천총국"
  },
  {
    "name": "태기산 송신소",
    "lat": 37.6022,
    "lon": 128.285,
    "region": "원주국"
  },
  {
    "name": "원주 송신소",
    "lat": 37.3598,
    "lon": 127.954,
    "region": "원주국"
  },
  {
    "name": "백운산 송신소",
    "lat": 37.2564,
    "lon": 127.971,
    "region": "강릉국"
  },
  {
    "name": "괘방산 송신소",
    "lat": 37.709,
    "lon": 129.0,
    "region": "강릉국"
  },
  {
    "name": "초록봉 송신소",
    "lat": 37.5217,
    "lon": 129.07,
    "region": "강릉국"
  },
  {
    "name": "봉황산 송신소",
    "lat": 37.4382,
    "lon": 129.177,
    "region": "강릉국"
  },
  {
    "name": "함백산 송신소",
    "lat": 37.1612,
    "lon": 128.921,
    "region": "강릉국"
  },
  {
    "name": "가엽산 송신소",
    "lat": 36.9682,
    "lon": 127.705,
    "region": "충주국"
  },
  {
    "name": "우암산 송신소",
    "lat": 36.6479,
    "lon": 127.502,
    "region": "청주총국"
  },
  {
    "name": "흑성 송신소",
    "lat": 36.7934,
    "lon": 127.208,
    "region": "대전총국"
  },
  {
    "name": "원효봉 송신소",
    "lat": 36.7059,
    "lon": 126.609,
    "region": "대전총국"
  },
  {
    "name": "계룡산 송신소",
    "lat": 36.3421,
    "lon": 127.206,
    "region": "대전총국"
  },
  {
    "name": "식장산 송신소",
    "lat": 36.2998,
    "lon": 127.481,
    "region": "대전총국"
  },
  {
    "name": "학가산 송신소",
    "lat": 36.6611,
    "lon": 128.611,
    "region": "대구총국"
  },
  {
    "name": "일월산 송신소",
    "lat": 36.8086,
    "lon": 129.091,
    "region": "안동국"
  },
  {
    "name": "조항산 송신소",
    "lat": 35.976,
    "lon": 129.473,
    "region": "포항국"
  },
  {
    "name": "현종산 송신소",
    "lat": 36.8644,
    "lon": 129.4,
    "region": "포항국"
  },
  {
    "name": "학가산 송신소",
    "lat": 36.6611,
    "lon": 128.611,
    "region": "대구총국"
  },
  {
    "name": "팔공산 송신소",
    "lat": 36.0163,
    "lon": 128.695,
    "region": "대구총국"
  },
  {
    "name": "무룡산 송신소",
    "lat": 35.5917,
    "lon": 129.399,
    "region": "울산국"
  },
  {
    "name": "황령산 송신소",
    "lat": 35.1579,
    "lon": 129.082,
    "region": "부산총국"
  },
  {
    "name": "불모산 송신소",
    "lat": 35.1657,
    "lon": 128.741,
    "region": "창원총국"
  },
  {
    "name": "장군대산 송신소",
    "lat": 35.1911,
    "lon": 128.195,
    "region": "진주국"
  },
  {
    "name": "망진산 송신소",
    "lat": 35.1754,
    "lon": 128.076,
    "region": "진주국"
  },
  {
    "name": "감악산 송신소",
    "lat": 35.5951,
    "lon": 127.927,
    "region": "진주국"
  },
  {
    "name": "모악산 송신소",
    "lat": 35.7287,
    "lon": 127.085,
    "region": "전주총국"
  },
  {
    "name": "노고단 송신소",
    "lat": 35.2936,
    "lon": 127.529,
    "region": "전주총국"
  },
  {
    "name": "무등산 송신소",
    "lat": 35.114773,
    "lon": 126.997634,
    "region": "광주총국"
  },
  {
    "name": "대둔산 송신소",
    "lat": 34.4529722222,
    "lon": 126.6201388889,
    "region": "목포국",
    "waypoint": {
      "lat": 34.4528249,
      "lon": 126.6197597,
      "address": "nan"
    }
  },
  {
    "name": "양을산 송신소",
    "lat": 34.8101055556,
    "lon": 126.4088777778,
    "region": "목포국",
    "waypoint": {
      "lat": 34.8120815,
      "lon": 126.4072188,
      "address": "nan"
    }
  },
  {
    "name": "영암 송신소",
    "lat": 34.7491666667,
    "lon": 126.4461111111,
    "region": "목포국",
    "waypoint": {
      "lat": 34.7429303,
      "lon": 126.4460308,
      "address": "nan"
    }
  },
  {
    "name": "망운산 송신소",
    "lat": 34.8461305556,
    "lon": 127.8461611111,
    "region": "순천국"
  },
  {
    "name": "순천 남산 TVR",
    "lat": 34.9356944444,
    "lon": 127.4751388889,
    "region": "순천국",
    "waypoint": {
      "lat": 34.9371218,
      "lon": 127.4733372,
      "address": "전남 순천시 덕월동 1198-1"
    }
  }
]